{
"type": "FeatureCollection",
"name": "mx",
"crs": { "type": "name", "properties": { "name": "urn:ogc:def:crs:OGC:1.3:CRS84" } },
"features": [
{ "type": "Feature", "properties": { "city": "Mexico City", "lat": 19.4333, "lng": -99.1333, "country": "Mexico", "iso2": "MX", "admin_name": "Ciudad de México", "capital": "primary", "population": "20996000", "population_proper": "8918653" }, "geometry": { "type": "Point", "coordinates": [ -99.1333, 19.4333 ] } },
{ "type": "Feature", "properties": { "city": "Guadalajara", "lat": 20.6767, "lng": -103.3475, "country": "Mexico", "iso2": "MX", "admin_name": "Jalisco", "capital": "admin", "population": "5253000", "population_proper": "1460148" }, "geometry": { "type": "Point", "coordinates": [ -103.3475, 20.6767 ] } },
{ "type": "Feature", "properties": { "city": "Monterrey", "lat": 25.6667, "lng": -100.3, "country": "Mexico", "iso2": "MX", "admin_name": "Nuevo León", "capital": "admin", "population": "4295000", "population_proper": "1109171" }, "geometry": { "type": "Point", "coordinates": [ -100.3, 25.6667 ] } },
{ "type": "Feature", "properties": { "city": "Tijuana", "lat": 32.525, "lng": -117.0333, "country": "Mexico", "iso2": "MX", "admin_name": "Baja California", "capital": "minor", "population": "2384609", "population_proper": "1902385" }, "geometry": { "type": "Point", "coordinates": [ -117.0333, 32.525 ] } },
{ "type": "Feature", "properties": { "city": "Ecatepec", "lat": 19.6097, "lng": -99.06, "country": "Mexico", "iso2": "MX", "admin_name": "México", "capital": "minor", "population": "1656107", "population_proper": "1656107" }, "geometry": { "type": "Point", "coordinates": [ -99.06, 19.6097 ] } },
{ "type": "Feature", "properties": { "city": "Puebla", "lat": 19.0333, "lng": -98.1833, "country": "Mexico", "iso2": "MX", "admin_name": "Puebla", "capital": "admin", "population": "1576259", "population_proper": "1576259" }, "geometry": { "type": "Point", "coordinates": [ -98.1833, 19.0333 ] } },
{ "type": "Feature", "properties": { "city": "León de los Aldama", "lat": 21.1167, "lng": -101.6833, "country": "Mexico", "iso2": "MX", "admin_name": "Guanajuato", "capital": "minor", "population": "1454793", "population_proper": "1238496" }, "geometry": { "type": "Point", "coordinates": [ -101.6833, 21.1167 ] } },
{ "type": "Feature", "properties": { "city": "Juárez", "lat": 31.7386, "lng": -106.487, "country": "Mexico", "iso2": "MX", "admin_name": "Chihuahua", "capital": "minor", "population": "1321004", "population_proper": "1321004" }, "geometry": { "type": "Point", "coordinates": [ -106.487, 31.7386 ] } },
{ "type": "Feature", "properties": { "city": "Zapopan", "lat": 20.7167, "lng": -103.4, "country": "Mexico", "iso2": "MX", "admin_name": "Jalisco", "capital": "minor", "population": "1155790", "population_proper": "1155790" }, "geometry": { "type": "Point", "coordinates": [ -103.4, 20.7167 ] } },
{ "type": "Feature", "properties": { "city": "Nezahualcóyotl", "lat": 19.4, "lng": -98.9889, "country": "Mexico", "iso2": "MX", "admin_name": "México", "capital": "minor", "population": "1110565", "population_proper": "1110565" }, "geometry": { "type": "Point", "coordinates": [ -98.9889, 19.4 ] } },
{ "type": "Feature", "properties": { "city": "Ciudad Nezahualcóyotl", "lat": 19.41, "lng": -99.03, "country": "Mexico", "iso2": "MX", "admin_name": "México", "capital": "", "population": "1109363", "population_proper": "750000" }, "geometry": { "type": "Point", "coordinates": [ -99.03, 19.41 ] } },
{ "type": "Feature", "properties": { "city": "Mexicali", "lat": 32.6633, "lng": -115.4678, "country": "Mexico", "iso2": "MX", "admin_name": "Baja California", "capital": "admin", "population": "1102342", "population_proper": "1032686" }, "geometry": { "type": "Point", "coordinates": [ -115.4678, 32.6633 ] } },
{ "type": "Feature", "properties": { "city": "Aguascalientes", "lat": 21.876, "lng": -102.296, "country": "Mexico", "iso2": "MX", "admin_name": "Aguascalientes", "capital": "admin", "population": "934424", "population_proper": "934424" }, "geometry": { "type": "Point", "coordinates": [ -102.296, 21.876 ] } },
{ "type": "Feature", "properties": { "city": "Mérida", "lat": 20.97, "lng": -89.62, "country": "Mexico", "iso2": "MX", "admin_name": "Yucatán", "capital": "admin", "population": "892363", "population_proper": "892363" }, "geometry": { "type": "Point", "coordinates": [ -89.62, 20.97 ] } },
{ "type": "Feature", "properties": { "city": "Chihuahua", "lat": 28.6353, "lng": -106.0889, "country": "Mexico", "iso2": "MX", "admin_name": "Chihuahua", "capital": "admin", "population": "878062", "population_proper": "878062" }, "geometry": { "type": "Point", "coordinates": [ -106.0889, 28.6353 ] } },
{ "type": "Feature", "properties": { "city": "Naucalpan de Juárez", "lat": 19.4753, "lng": -99.2378, "country": "Mexico", "iso2": "MX", "admin_name": "México", "capital": "minor", "population": "833779", "population_proper": "833779" }, "geometry": { "type": "Point", "coordinates": [ -99.2378, 19.4753 ] } },
{ "type": "Feature", "properties": { "city": "San Luis Potosí", "lat": 22.1511, "lng": -100.9761, "country": "Mexico", "iso2": "MX", "admin_name": "San Luis Potosí", "capital": "admin", "population": "824229", "population_proper": "772828" }, "geometry": { "type": "Point", "coordinates": [ -100.9761, 22.1511 ] } },
{ "type": "Feature", "properties": { "city": "Toluca", "lat": 19.2925, "lng": -99.6569, "country": "Mexico", "iso2": "MX", "admin_name": "México", "capital": "admin", "population": "819561", "population_proper": "747512" }, "geometry": { "type": "Point", "coordinates": [ -99.6569, 19.2925 ] } },
{ "type": "Feature", "properties": { "city": "Hermosillo", "lat": 29.0989, "lng": -110.9542, "country": "Mexico", "iso2": "MX", "admin_name": "Sonora", "capital": "admin", "population": "812229", "population_proper": "812229" }, "geometry": { "type": "Point", "coordinates": [ -110.9542, 29.0989 ] } },
{ "type": "Feature", "properties": { "city": "Saltillo", "lat": 25.4333, "lng": -101.0, "country": "Mexico", "iso2": "MX", "admin_name": "Coahuila de Zaragoza", "capital": "admin", "population": "807537", "population_proper": "807537" }, "geometry": { "type": "Point", "coordinates": [ -101.0, 25.4333 ] } },
{ "type": "Feature", "properties": { "city": "Querétaro", "lat": 20.5875, "lng": -100.3928, "country": "Mexico", "iso2": "MX", "admin_name": "Querétaro", "capital": "admin", "population": "804663", "population_proper": "626495" }, "geometry": { "type": "Point", "coordinates": [ -100.3928, 20.5875 ] } },
{ "type": "Feature", "properties": { "city": "Culiacán", "lat": 24.8069, "lng": -107.3939, "country": "Mexico", "iso2": "MX", "admin_name": "Sinaloa", "capital": "admin", "population": "785800", "population_proper": "785800" }, "geometry": { "type": "Point", "coordinates": [ -107.3939, 24.8069 ] } },
{ "type": "Feature", "properties": { "city": "Morelia", "lat": 19.7683, "lng": -101.1894, "country": "Mexico", "iso2": "MX", "admin_name": "Michoacán de Ocampo", "capital": "", "population": "784776", "population_proper": "784776" }, "geometry": { "type": "Point", "coordinates": [ -101.1894, 19.7683 ] } },
{ "type": "Feature", "properties": { "city": "Tlalnepantla", "lat": 19.5367, "lng": -99.1947, "country": "Mexico", "iso2": "MX", "admin_name": "México", "capital": "minor", "population": "750224", "population_proper": "653410" }, "geometry": { "type": "Point", "coordinates": [ -99.1947, 19.5367 ] } },
{ "type": "Feature", "properties": { "city": "Cancún", "lat": 21.1606, "lng": -86.8475, "country": "Mexico", "iso2": "MX", "admin_name": "Quintana Roo", "capital": "minor", "population": "743626", "population_proper": "743626" }, "geometry": { "type": "Point", "coordinates": [ -86.8475, 21.1606 ] } },
{ "type": "Feature", "properties": { "city": "Tlajomulco de Zúñiga", "lat": 20.4736, "lng": -103.4431, "country": "Mexico", "iso2": "MX", "admin_name": "Jalisco", "capital": "minor", "population": "727750", "population_proper": "727750" }, "geometry": { "type": "Point", "coordinates": [ -103.4431, 20.4736 ] } },
{ "type": "Feature", "properties": { "city": "Reynosa", "lat": 26.0922, "lng": -98.2778, "country": "Mexico", "iso2": "MX", "admin_name": "Tamaulipas", "capital": "minor", "population": "725793", "population_proper": "612183" }, "geometry": { "type": "Point", "coordinates": [ -98.2778, 26.0922 ] } },
{ "type": "Feature", "properties": { "city": "Guadalupe", "lat": 25.6775, "lng": -100.2597, "country": "Mexico", "iso2": "MX", "admin_name": "Nuevo León", "capital": "minor", "population": "691931", "population_proper": "691931" }, "geometry": { "type": "Point", "coordinates": [ -100.2597, 25.6775 ] } },
{ "type": "Feature", "properties": { "city": "Acapulco de Juárez", "lat": 16.8636, "lng": -99.8825, "country": "Mexico", "iso2": "MX", "admin_name": "Guerrero", "capital": "minor", "population": "687608", "population_proper": "673478" }, "geometry": { "type": "Point", "coordinates": [ -99.8825, 16.8636 ] } },
{ "type": "Feature", "properties": { "city": "Torreón", "lat": 25.5394, "lng": -103.4486, "country": "Mexico", "iso2": "MX", "admin_name": "Coahuila de Zaragoza", "capital": "minor", "population": "679288", "population_proper": "679288" }, "geometry": { "type": "Point", "coordinates": [ -103.4486, 25.5394 ] } },
{ "type": "Feature", "properties": { "city": "Durango", "lat": 24.0167, "lng": -104.6667, "country": "Mexico", "iso2": "MX", "admin_name": "Durango", "capital": "admin", "population": "654876", "population_proper": "654876" }, "geometry": { "type": "Point", "coordinates": [ -104.6667, 24.0167 ] } },
{ "type": "Feature", "properties": { "city": "Villahermosa", "lat": 17.9892, "lng": -92.9281, "country": "Mexico", "iso2": "MX", "admin_name": "Tabasco", "capital": "admin", "population": "640359", "population_proper": "640359" }, "geometry": { "type": "Point", "coordinates": [ -92.9281, 17.9892 ] } },
{ "type": "Feature", "properties": { "city": "Chimalhuacán", "lat": 19.4167, "lng": -98.9, "country": "Mexico", "iso2": "MX", "admin_name": "México", "capital": "minor", "population": "614453", "population_proper": "614453" }, "geometry": { "type": "Point", "coordinates": [ -98.9, 19.4167 ] } },
{ "type": "Feature", "properties": { "city": "Tuxtla", "lat": 16.7528, "lng": -93.1167, "country": "Mexico", "iso2": "MX", "admin_name": "Chiapas", "capital": "admin", "population": "598710", "population_proper": "598710" }, "geometry": { "type": "Point", "coordinates": [ -93.1167, 16.7528 ] } },
{ "type": "Feature", "properties": { "city": "Tlaquepaque", "lat": 20.6167, "lng": -103.3167, "country": "Mexico", "iso2": "MX", "admin_name": "Jalisco", "capital": "minor", "population": "575942", "population_proper": "575942" }, "geometry": { "type": "Point", "coordinates": [ -103.3167, 20.6167 ] } },
{ "type": "Feature", "properties": { "city": "Veracruz", "lat": 19.1903, "lng": -96.1533, "country": "Mexico", "iso2": "MX", "admin_name": "Veracruz", "capital": "minor", "population": "552156", "population_proper": "428323" }, "geometry": { "type": "Point", "coordinates": [ -96.1533, 19.1903 ] } },
{ "type": "Feature", "properties": { "city": "Xalapa", "lat": 19.54, "lng": -96.9275, "country": "Mexico", "iso2": "MX", "admin_name": "Veracruz", "capital": "admin", "population": "525147", "population_proper": "424755" }, "geometry": { "type": "Point", "coordinates": [ -96.9275, 19.54 ] } },
{ "type": "Feature", "properties": { "city": "Ciudad Apodaca", "lat": 25.7833, "lng": -100.1833, "country": "Mexico", "iso2": "MX", "admin_name": "Nuevo León", "capital": "minor", "population": "523370", "population_proper": "523370" }, "geometry": { "type": "Point", "coordinates": [ -100.1833, 25.7833 ] } },
{ "type": "Feature", "properties": { "city": "Ensenada", "lat": 31.8578, "lng": -116.6058, "country": "Mexico", "iso2": "MX", "admin_name": "Baja California", "capital": "minor", "population": "522768", "population_proper": "522768" }, "geometry": { "type": "Point", "coordinates": [ -116.6058, 31.8578 ] } },
{ "type": "Feature", "properties": { "city": "Heroica Matamoros", "lat": 25.8797, "lng": -97.5042, "country": "Mexico", "iso2": "MX", "admin_name": "Tamaulipas", "capital": "minor", "population": "520367", "population_proper": "520367" }, "geometry": { "type": "Point", "coordinates": [ -97.5042, 25.8797 ] } },
{ "type": "Feature", "properties": { "city": "Cuautitlán Izcalli", "lat": 19.65, "lng": -99.25, "country": "Mexico", "iso2": "MX", "admin_name": "México", "capital": "minor", "population": "511675", "population_proper": "511675" }, "geometry": { "type": "Point", "coordinates": [ -99.25, 19.65 ] } },
{ "type": "Feature", "properties": { "city": "Mazatlán", "lat": 23.22, "lng": -106.42, "country": "Mexico", "iso2": "MX", "admin_name": "Sinaloa", "capital": "minor", "population": "502547", "population_proper": "502547" }, "geometry": { "type": "Point", "coordinates": [ -106.42, 23.22 ] } },
{ "type": "Feature", "properties": { "city": "Mazatán", "lat": 29.0167, "lng": -110.1333, "country": "Mexico", "iso2": "MX", "admin_name": "Sonora", "capital": "minor", "population": "500000", "population_proper": "438434" }, "geometry": { "type": "Point", "coordinates": [ -110.1333, 29.0167 ] } },
{ "type": "Feature", "properties": { "city": "Ixtapaluca", "lat": 19.3186, "lng": -98.8822, "country": "Mexico", "iso2": "MX", "admin_name": "México", "capital": "minor", "population": "495563", "population_proper": "495563" }, "geometry": { "type": "Point", "coordinates": [ -98.8822, 19.3186 ] } },
{ "type": "Feature", "properties": { "city": "Ciudad López Mateos", "lat": 19.55, "lng": -99.2833, "country": "Mexico", "iso2": "MX", "admin_name": "México", "capital": "minor", "population": "489937", "population_proper": "489937" }, "geometry": { "type": "Point", "coordinates": [ -99.2833, 19.55 ] } },
{ "type": "Feature", "properties": { "city": "Tultitlán de Mariano Escobedo", "lat": 19.645, "lng": -99.1694, "country": "Mexico", "iso2": "MX", "admin_name": "México", "capital": "minor", "population": "486998", "population_proper": "486998" }, "geometry": { "type": "Point", "coordinates": [ -99.1694, 19.645 ] } },
{ "type": "Feature", "properties": { "city": "San Nicolás de los Garza", "lat": 25.75, "lng": -100.2833, "country": "Mexico", "iso2": "MX", "admin_name": "Nuevo León", "capital": "minor", "population": "476761", "population_proper": "443273" }, "geometry": { "type": "Point", "coordinates": [ -100.2833, 25.75 ] } },
{ "type": "Feature", "properties": { "city": "Celaya", "lat": 20.5222, "lng": -100.8122, "country": "Mexico", "iso2": "MX", "admin_name": "Guanajuato", "capital": "minor", "population": "468469", "population_proper": "468469" }, "geometry": { "type": "Point", "coordinates": [ -100.8122, 20.5222 ] } },
{ "type": "Feature", "properties": { "city": "Ciudad Obregón", "lat": 27.4939, "lng": -109.9389, "country": "Mexico", "iso2": "MX", "admin_name": "Sonora", "capital": "minor", "population": "405000", "population_proper": "386966" }, "geometry": { "type": "Point", "coordinates": [ -109.9389, 27.4939 ] } },
{ "type": "Feature", "properties": { "city": "Irapuato", "lat": 20.6667, "lng": -101.35, "country": "Mexico", "iso2": "MX", "admin_name": "Guanajuato", "capital": "minor", "population": "380941", "population_proper": "380941" }, "geometry": { "type": "Point", "coordinates": [ -101.35, 20.6667 ] } },
{ "type": "Feature", "properties": { "city": "Tonalá", "lat": 20.6167, "lng": -103.2333, "country": "Mexico", "iso2": "MX", "admin_name": "Jalisco", "capital": "minor", "population": "374258", "population_proper": "374258" }, "geometry": { "type": "Point", "coordinates": [ -103.2333, 20.6167 ] } },
{ "type": "Feature", "properties": { "city": "Nuevo Laredo", "lat": 27.4861, "lng": -99.5069, "country": "Mexico", "iso2": "MX", "admin_name": "Tamaulipas", "capital": "minor", "population": "373725", "population_proper": "373725" }, "geometry": { "type": "Point", "coordinates": [ -99.5069, 27.4861 ] } },
{ "type": "Feature", "properties": { "city": "Nicolás Romero", "lat": 19.5833, "lng": -99.3667, "country": "Mexico", "iso2": "MX", "admin_name": "México", "capital": "minor", "population": "366602", "population_proper": "366602" }, "geometry": { "type": "Point", "coordinates": [ -99.3667, 19.5833 ] } },
{ "type": "Feature", "properties": { "city": "Cuernavaca", "lat": 18.9186, "lng": -99.2342, "country": "Mexico", "iso2": "MX", "admin_name": "Morelos", "capital": "admin", "population": "366321", "population_proper": "338650" }, "geometry": { "type": "Point", "coordinates": [ -99.2342, 18.9186 ] } },
{ "type": "Feature", "properties": { "city": "Tecámac", "lat": 19.7131, "lng": -98.9683, "country": "Mexico", "iso2": "MX", "admin_name": "México", "capital": "minor", "population": "364579", "population_proper": "364579" }, "geometry": { "type": "Point", "coordinates": [ -98.9683, 19.7131 ] } },
{ "type": "Feature", "properties": { "city": "Ciudad General Escobedo", "lat": 25.7933, "lng": -100.1583, "country": "Mexico", "iso2": "MX", "admin_name": "Nuevo León", "capital": "minor", "population": "363436", "population_proper": "299364" }, "geometry": { "type": "Point", "coordinates": [ -100.1583, 25.7933 ] } },
{ "type": "Feature", "properties": { "city": "Minatitlán", "lat": 17.9833, "lng": -94.55, "country": "Mexico", "iso2": "MX", "admin_name": "Veracruz", "capital": "minor", "population": "356020", "population_proper": "356020" }, "geometry": { "type": "Point", "coordinates": [ -94.55, 17.9833 ] } },
{ "type": "Feature", "properties": { "city": "Tepic", "lat": 21.5083, "lng": -104.8931, "country": "Mexico", "iso2": "MX", "admin_name": "Nayarit", "capital": "admin", "population": "332863", "population_proper": "332863" }, "geometry": { "type": "Point", "coordinates": [ -104.8931, 21.5083 ] } },
{ "type": "Feature", "properties": { "city": "Gómez Palacio", "lat": 25.5611, "lng": -103.4983, "country": "Mexico", "iso2": "MX", "admin_name": "Durango", "capital": "minor", "population": "327985", "population_proper": "327985" }, "geometry": { "type": "Point", "coordinates": [ -103.4983, 25.5611 ] } },
{ "type": "Feature", "properties": { "city": "Tapachula", "lat": 14.9, "lng": -92.2667, "country": "Mexico", "iso2": "MX", "admin_name": "Chiapas", "capital": "minor", "population": "320451", "population_proper": "320451" }, "geometry": { "type": "Point", "coordinates": [ -92.2667, 14.9 ] } },
{ "type": "Feature", "properties": { "city": "Coatzacoalcos", "lat": 18.15, "lng": -94.4333, "country": "Mexico", "iso2": "MX", "admin_name": "Veracruz", "capital": "minor", "population": "319187", "population_proper": "319187" }, "geometry": { "type": "Point", "coordinates": [ -94.4333, 18.15 ] } },
{ "type": "Feature", "properties": { "city": "Uruapan", "lat": 19.4208, "lng": -102.0628, "country": "Mexico", "iso2": "MX", "admin_name": "Michoacán de Ocampo", "capital": "minor", "population": "315350", "population_proper": "315350" }, "geometry": { "type": "Point", "coordinates": [ -102.0628, 19.4208 ] } },
{ "type": "Feature", "properties": { "city": "Tampico", "lat": 22.2553, "lng": -97.8686, "country": "Mexico", "iso2": "MX", "admin_name": "Tamaulipas", "capital": "minor", "population": "314418", "population_proper": "314418" }, "geometry": { "type": "Point", "coordinates": [ -97.8686, 22.2553 ] } },
{ "type": "Feature", "properties": { "city": "Chalco", "lat": 19.2647, "lng": -98.8975, "country": "Mexico", "iso2": "MX", "admin_name": "México", "capital": "minor", "population": "310130", "population_proper": "310130" }, "geometry": { "type": "Point", "coordinates": [ -98.8975, 19.2647 ] } },
{ "type": "Feature", "properties": { "city": "Ciudad Victoria", "lat": 23.7333, "lng": -99.1333, "country": "Mexico", "iso2": "MX", "admin_name": "Tamaulipas", "capital": "admin", "population": "305155", "population_proper": "305155" }, "geometry": { "type": "Point", "coordinates": [ -99.1333, 23.7333 ] } },
{ "type": "Feature", "properties": { "city": "Oaxaca", "lat": 17.0833, "lng": -96.75, "country": "Mexico", "iso2": "MX", "admin_name": "Oaxaca", "capital": "admin", "population": "300050", "population_proper": "300050" }, "geometry": { "type": "Point", "coordinates": [ -96.75, 17.0833 ] } },
{ "type": "Feature", "properties": { "city": "Coacalco", "lat": 19.6333, "lng": -99.0931, "country": "Mexico", "iso2": "MX", "admin_name": "México", "capital": "minor", "population": "278064", "population_proper": "278064" }, "geometry": { "type": "Point", "coordinates": [ -99.0931, 19.6333 ] } },
{ "type": "Feature", "properties": { "city": "Pachuca", "lat": 20.1, "lng": -98.75, "country": "Mexico", "iso2": "MX", "admin_name": "Hidalgo", "capital": "admin", "population": "277375", "population_proper": "277375" }, "geometry": { "type": "Point", "coordinates": [ -98.75, 20.1 ] } },
{ "type": "Feature", "properties": { "city": "Tehuacán", "lat": 18.4617, "lng": -97.3928, "country": "Mexico", "iso2": "MX", "admin_name": "Puebla", "capital": "minor", "population": "274906", "population_proper": "274906" }, "geometry": { "type": "Point", "coordinates": [ -97.3928, 18.4617 ] } },
{ "type": "Feature", "properties": { "city": "Salamanca", "lat": 20.5703, "lng": -101.1972, "country": "Mexico", "iso2": "MX", "admin_name": "Guanajuato", "capital": "minor", "population": "260759", "population_proper": "260759" }, "geometry": { "type": "Point", "coordinates": [ -101.1972, 20.5703 ] } },
{ "type": "Feature", "properties": { "city": "Ciudad Benito Juárez", "lat": 25.65, "lng": -100.0833, "country": "Mexico", "iso2": "MX", "admin_name": "Nuevo León", "capital": "minor", "population": "260683", "population_proper": "260683" }, "geometry": { "type": "Point", "coordinates": [ -100.0833, 25.65 ] } },
{ "type": "Feature", "properties": { "city": "Ciudad Santa Catarina", "lat": 25.6833, "lng": -100.45, "country": "Mexico", "iso2": "MX", "admin_name": "Nuevo León", "capital": "minor", "population": "259896", "population_proper": "259896" }, "geometry": { "type": "Point", "coordinates": [ -100.45, 25.6833 ] } },
{ "type": "Feature", "properties": { "city": "Texcoco", "lat": 19.52, "lng": -98.88, "country": "Mexico", "iso2": "MX", "admin_name": "México", "capital": "minor", "population": "259308", "population_proper": "105165" }, "geometry": { "type": "Point", "coordinates": [ -98.88, 19.52 ] } },
{ "type": "Feature", "properties": { "city": "Los Mochis", "lat": 25.7835, "lng": -108.9937, "country": "Mexico", "iso2": "MX", "admin_name": "Sinaloa", "capital": "minor", "population": "256613", "population_proper": "256613" }, "geometry": { "type": "Point", "coordinates": [ -108.9937, 25.7835 ] } },
{ "type": "Feature", "properties": { "city": "Playa del Carmen", "lat": 20.6275, "lng": -87.0811, "country": "Mexico", "iso2": "MX", "admin_name": "Quintana Roo", "capital": "minor", "population": "252087", "population_proper": "252087" }, "geometry": { "type": "Point", "coordinates": [ -87.0811, 20.6275 ] } },
{ "type": "Feature", "properties": { "city": "La Paz", "lat": 24.1422, "lng": -110.3108, "country": "Mexico", "iso2": "MX", "admin_name": "Baja California Sur", "capital": "admin", "population": "244219", "population_proper": "244219" }, "geometry": { "type": "Point", "coordinates": [ -110.3108, 24.1422 ] } },
{ "type": "Feature", "properties": { "city": "San Juan del Río", "lat": 20.3833, "lng": -99.9833, "country": "Mexico", "iso2": "MX", "admin_name": "Querétaro", "capital": "minor", "population": "241699", "population_proper": "241699" }, "geometry": { "type": "Point", "coordinates": [ -99.9833, 20.3833 ] } },
{ "type": "Feature", "properties": { "city": "Monclova", "lat": 26.9103, "lng": -101.4222, "country": "Mexico", "iso2": "MX", "admin_name": "Coahuila de Zaragoza", "capital": "minor", "population": "231107", "population_proper": "216206" }, "geometry": { "type": "Point", "coordinates": [ -101.4222, 26.9103 ] } },
{ "type": "Feature", "properties": { "city": "Puerto Vallarta", "lat": 20.6667, "lng": -105.2667, "country": "Mexico", "iso2": "MX", "admin_name": "Jalisco", "capital": "minor", "population": "221200", "population_proper": "203342" }, "geometry": { "type": "Point", "coordinates": [ -105.2667, 20.6667 ] } },
{ "type": "Feature", "properties": { "city": "Campeche", "lat": 19.85, "lng": -90.5306, "country": "Mexico", "iso2": "MX", "admin_name": "Campeche", "capital": "admin", "population": "220389", "population_proper": "220389" }, "geometry": { "type": "Point", "coordinates": [ -90.5306, 19.85 ] } },
{ "type": "Feature", "properties": { "city": "Heroica Nogales", "lat": 31.3186, "lng": -110.9458, "country": "Mexico", "iso2": "MX", "admin_name": "Sonora", "capital": "minor", "population": "220292", "population_proper": "220292" }, "geometry": { "type": "Point", "coordinates": [ -110.9458, 31.3186 ] } },
{ "type": "Feature", "properties": { "city": "Córdoba", "lat": 18.8942, "lng": -96.9347, "country": "Mexico", "iso2": "MX", "admin_name": "Veracruz", "capital": "minor", "population": "218153", "population_proper": "218153" }, "geometry": { "type": "Point", "coordinates": [ -96.9347, 18.8942 ] } },
{ "type": "Feature", "properties": { "city": "Ciudad Acuña", "lat": 29.3242, "lng": -100.9317, "country": "Mexico", "iso2": "MX", "admin_name": "Coahuila de Zaragoza", "capital": "minor", "population": "216099", "population_proper": "144669" }, "geometry": { "type": "Point", "coordinates": [ -100.9317, 29.3242 ] } },
{ "type": "Feature", "properties": { "city": "Soledad de Graciano Sánchez", "lat": 22.1833, "lng": -100.9333, "country": "Mexico", "iso2": "MX", "admin_name": "San Luis Potosí", "capital": "minor", "population": "215968", "population_proper": "215968" }, "geometry": { "type": "Point", "coordinates": [ -100.9333, 22.1833 ] } },
{ "type": "Feature", "properties": { "city": "Guadalupe", "lat": 22.7528, "lng": -102.5078, "country": "Mexico", "iso2": "MX", "admin_name": "Zacatecas", "capital": "minor", "population": "215000", "population_proper": "215000" }, "geometry": { "type": "Point", "coordinates": [ -102.5078, 22.7528 ] } },
{ "type": "Feature", "properties": { "city": "Ciudad Madero", "lat": 22.25, "lng": -97.8333, "country": "Mexico", "iso2": "MX", "admin_name": "Tamaulipas", "capital": "minor", "population": "209175", "population_proper": "197216" }, "geometry": { "type": "Point", "coordinates": [ -97.8333, 22.25 ] } },
{ "type": "Feature", "properties": { "city": "Buenavista", "lat": 19.6083, "lng": -99.1694, "country": "Mexico", "iso2": "MX", "admin_name": "México", "capital": "", "population": "206081", "population_proper": "206081" }, "geometry": { "type": "Point", "coordinates": [ -99.1694, 19.6083 ] } },
{ "type": "Feature", "properties": { "city": "Metepec", "lat": 19.2511, "lng": -99.6047, "country": "Mexico", "iso2": "MX", "admin_name": "Morelos", "capital": "minor", "population": "206005", "population_proper": "206005" }, "geometry": { "type": "Point", "coordinates": [ -99.6047, 19.2511 ] } },
{ "type": "Feature", "properties": { "city": "Poza Rica de Hidalgo", "lat": 20.5333, "lng": -97.45, "country": "Mexico", "iso2": "MX", "admin_name": "Veracruz", "capital": "minor", "population": "200119", "population_proper": "200119" }, "geometry": { "type": "Point", "coordinates": [ -97.45, 20.5333 ] } },
{ "type": "Feature", "properties": { "city": "Cholula de Rivadabia", "lat": 19.0633, "lng": -98.3064, "country": "Mexico", "iso2": "MX", "admin_name": "Puebla", "capital": "", "population": "193554", "population_proper": "129032" }, "geometry": { "type": "Point", "coordinates": [ -98.3064, 19.0633 ] } },
{ "type": "Feature", "properties": { "city": "San Luis Río Colorado", "lat": 32.4767, "lng": -114.7625, "country": "Mexico", "iso2": "MX", "admin_name": "Sonora", "capital": "minor", "population": "192739", "population_proper": "192739" }, "geometry": { "type": "Point", "coordinates": [ -114.7625, 32.4767 ] } },
{ "type": "Feature", "properties": { "city": "San Pablo de las Salinas", "lat": 19.6656, "lng": -99.0917, "country": "Mexico", "iso2": "MX", "admin_name": "México", "capital": "", "population": "189453", "population_proper": "189453" }, "geometry": { "type": "Point", "coordinates": [ -99.0917, 19.6656 ] } },
{ "type": "Feature", "properties": { "city": "Chilpancingo", "lat": 17.55, "lng": -99.5, "country": "Mexico", "iso2": "MX", "admin_name": "Guerrero", "capital": "admin", "population": "187251", "population_proper": "187251" }, "geometry": { "type": "Point", "coordinates": [ -99.5, 17.55 ] } },
{ "type": "Feature", "properties": { "city": "Manzanillo", "lat": 19.0522, "lng": -104.3158, "country": "Mexico", "iso2": "MX", "admin_name": "Colima", "capital": "minor", "population": "184541", "population_proper": "184541" }, "geometry": { "type": "Point", "coordinates": [ -104.3158, 19.0522 ] } },
{ "type": "Feature", "properties": { "city": "Ciudad Valles", "lat": 21.9833, "lng": -99.0167, "country": "Mexico", "iso2": "MX", "admin_name": "San Luis Potosí", "capital": "minor", "population": "176935", "population_proper": "176935" }, "geometry": { "type": "Point", "coordinates": [ -99.0167, 21.9833 ] } },
{ "type": "Feature", "properties": { "city": "Cuautla", "lat": 18.8167, "lng": -98.95, "country": "Mexico", "iso2": "MX", "admin_name": "Morelos", "capital": "minor", "population": "175208", "population_proper": "175208" }, "geometry": { "type": "Point", "coordinates": [ -98.95, 18.8167 ] } },
{ "type": "Feature", "properties": { "city": "Chicoloapan", "lat": 19.4167, "lng": -98.9, "country": "Mexico", "iso2": "MX", "admin_name": "México", "capital": "minor", "population": "175053", "population_proper": "175053" }, "geometry": { "type": "Point", "coordinates": [ -98.9, 19.4167 ] } },
{ "type": "Feature", "properties": { "city": "Guanajuato", "lat": 21.0178, "lng": -101.2567, "country": "Mexico", "iso2": "MX", "admin_name": "Guanajuato", "capital": "admin", "population": "171709", "population_proper": "72237" }, "geometry": { "type": "Point", "coordinates": [ -101.2567, 21.0178 ] } },
{ "type": "Feature", "properties": { "city": "Comitán", "lat": 16.2511, "lng": -92.1342, "country": "Mexico", "iso2": "MX", "admin_name": "Chiapas", "capital": "minor", "population": "170000", "population_proper": "170000" }, "geometry": { "type": "Point", "coordinates": [ -92.1342, 16.2511 ] } },
{ "type": "Feature", "properties": { "city": "Ciudad del Carmen", "lat": 18.6333, "lng": -91.8333, "country": "Mexico", "iso2": "MX", "admin_name": "Campeche", "capital": "minor", "population": "169466", "population_proper": "169466" }, "geometry": { "type": "Point", "coordinates": [ -91.8333, 18.6333 ] } },
{ "type": "Feature", "properties": { "city": "Cuauhtémoc", "lat": 28.405, "lng": -106.8667, "country": "Mexico", "iso2": "MX", "admin_name": "Chihuahua", "capital": "minor", "population": "168482", "population_proper": "168482" }, "geometry": { "type": "Point", "coordinates": [ -106.8667, 28.405 ] } },
{ "type": "Feature", "properties": { "city": "Lagos de Moreno", "lat": 21.3564, "lng": -101.9292, "country": "Mexico", "iso2": "MX", "admin_name": "Jalisco", "capital": "minor", "population": "164981", "population_proper": "164981" }, "geometry": { "type": "Point", "coordinates": [ -101.9292, 21.3564 ] } },
{ "type": "Feature", "properties": { "city": "Piedras Negras", "lat": 28.7, "lng": -100.5231, "country": "Mexico", "iso2": "MX", "admin_name": "Coahuila de Zaragoza", "capital": "minor", "population": "163595", "population_proper": "139169" }, "geometry": { "type": "Point", "coordinates": [ -100.5231, 28.7 ] } },
{ "type": "Feature", "properties": { "city": "San Cristóbal", "lat": 16.7367, "lng": -92.6383, "country": "Mexico", "iso2": "MX", "admin_name": "Chiapas", "capital": "minor", "population": "158027", "population_proper": "158027" }, "geometry": { "type": "Point", "coordinates": [ -92.6383, 16.7367 ] } },
{ "type": "Feature", "properties": { "city": "Navojoa", "lat": 27.0813, "lng": -109.4461, "country": "Mexico", "iso2": "MX", "admin_name": "Sonora", "capital": "minor", "population": "157729", "population_proper": "157729" }, "geometry": { "type": "Point", "coordinates": [ -109.4461, 27.0813 ] } },
{ "type": "Feature", "properties": { "city": "Jiutepec", "lat": 18.8833, "lng": -99.1667, "country": "Mexico", "iso2": "MX", "admin_name": "Morelos", "capital": "minor", "population": "153704", "population_proper": "153704" }, "geometry": { "type": "Point", "coordinates": [ -99.1667, 18.8833 ] } },
{ "type": "Feature", "properties": { "city": "Papantla de Olarte", "lat": 20.4478, "lng": -97.32, "country": "Mexico", "iso2": "MX", "admin_name": "Veracruz", "capital": "minor", "population": "152863", "population_proper": "152863" }, "geometry": { "type": "Point", "coordinates": [ -97.32, 20.4478 ] } },
{ "type": "Feature", "properties": { "city": "San Martin Texmelucan de Labastida", "lat": 19.2833, "lng": -98.4333, "country": "Mexico", "iso2": "MX", "admin_name": "Puebla", "capital": "minor", "population": "152051", "population_proper": "152051" }, "geometry": { "type": "Point", "coordinates": [ -98.4333, 19.2833 ] } },
{ "type": "Feature", "properties": { "city": "Tulancingo", "lat": 20.0833, "lng": -98.3667, "country": "Mexico", "iso2": "MX", "admin_name": "Hidalgo", "capital": "minor", "population": "151582", "population_proper": "151582" }, "geometry": { "type": "Point", "coordinates": [ -98.3667, 20.0833 ] } },
{ "type": "Feature", "properties": { "city": "Chetumal", "lat": 18.5036, "lng": -88.3053, "country": "Mexico", "iso2": "MX", "admin_name": "Quintana Roo", "capital": "admin", "population": "151243", "population_proper": "151243" }, "geometry": { "type": "Point", "coordinates": [ -88.3053, 18.5036 ] } },
{ "type": "Feature", "properties": { "city": "Dolores Hidalgo Cuna de la Independencia Nacional", "lat": 21.1516, "lng": -100.9369, "country": "Mexico", "iso2": "MX", "admin_name": "Guanajuato", "capital": "minor", "population": "148173", "population_proper": "148173" }, "geometry": { "type": "Point", "coordinates": [ -100.9369, 21.1516 ] } },
{ "type": "Feature", "properties": { "city": "Delicias", "lat": 28.1931, "lng": -105.4717, "country": "Mexico", "iso2": "MX", "admin_name": "Chihuahua", "capital": "minor", "population": "148045", "population_proper": "148045" }, "geometry": { "type": "Point", "coordinates": [ -105.4717, 28.1931 ] } },
{ "type": "Feature", "properties": { "city": "Silao", "lat": 20.9478, "lng": -101.4281, "country": "Mexico", "iso2": "MX", "admin_name": "Guanajuato", "capital": "minor", "population": "147123", "population_proper": "74242" }, "geometry": { "type": "Point", "coordinates": [ -101.4281, 20.9478 ] } },
{ "type": "Feature", "properties": { "city": "García", "lat": 25.8167, "lng": -100.5833, "country": "Mexico", "iso2": "MX", "admin_name": "Nuevo León", "capital": "minor", "population": "145867", "population_proper": "145867" }, "geometry": { "type": "Point", "coordinates": [ -100.5833, 25.8167 ] } },
{ "type": "Feature", "properties": { "city": "Tuxtepec", "lat": 18.1, "lng": -96.1167, "country": "Mexico", "iso2": "MX", "admin_name": "Oaxaca", "capital": "", "population": "144555", "population_proper": "144555" }, "geometry": { "type": "Point", "coordinates": [ -96.1167, 18.1 ] } },
{ "type": "Feature", "properties": { "city": "Túxpam de Rodríguez Cano", "lat": 20.95, "lng": -97.4, "country": "Mexico", "iso2": "MX", "admin_name": "Veracruz", "capital": "minor", "population": "143362", "population_proper": "143362" }, "geometry": { "type": "Point", "coordinates": [ -97.4, 20.95 ] } },
{ "type": "Feature", "properties": { "city": "Zamora", "lat": 19.9833, "lng": -102.2833, "country": "Mexico", "iso2": "MX", "admin_name": "Michoacán de Ocampo", "capital": "", "population": "141627", "population_proper": "141627" }, "geometry": { "type": "Point", "coordinates": [ -102.2833, 19.9833 ] } },
{ "type": "Feature", "properties": { "city": "Tepatitlán de Morelos", "lat": 20.817, "lng": -102.733, "country": "Mexico", "iso2": "MX", "admin_name": "Jalisco", "capital": "minor", "population": "141322", "population_proper": "141322" }, "geometry": { "type": "Point", "coordinates": [ -102.733, 20.817 ] } },
{ "type": "Feature", "properties": { "city": "Valle de Santiago", "lat": 20.3928, "lng": -101.1969, "country": "Mexico", "iso2": "MX", "admin_name": "Guanajuato", "capital": "minor", "population": "141058", "population_proper": "141058" }, "geometry": { "type": "Point", "coordinates": [ -101.1969, 20.3928 ] } },
{ "type": "Feature", "properties": { "city": "Kanasín", "lat": 20.9344, "lng": -89.5578, "country": "Mexico", "iso2": "MX", "admin_name": "Yucatán", "capital": "minor", "population": "139753", "population_proper": "139753" }, "geometry": { "type": "Point", "coordinates": [ -89.5578, 20.9344 ] } },
{ "type": "Feature", "properties": { "city": "San Miguel de Allende", "lat": 20.9142, "lng": -100.7436, "country": "Mexico", "iso2": "MX", "admin_name": "Guanajuato", "capital": "minor", "population": "139297", "population_proper": "139297" }, "geometry": { "type": "Point", "coordinates": [ -100.7436, 20.9142 ] } },
{ "type": "Feature", "properties": { "city": "Zacatecas", "lat": 22.7736, "lng": -102.5736, "country": "Mexico", "iso2": "MX", "admin_name": "Zacatecas", "capital": "admin", "population": "138152", "population_proper": "138152" }, "geometry": { "type": "Point", "coordinates": [ -102.5736, 22.7736 ] } },
{ "type": "Feature", "properties": { "city": "Boca del Rio", "lat": 19.1056, "lng": -96.1078, "country": "Mexico", "iso2": "MX", "admin_name": "Veracruz", "capital": "minor", "population": "138058", "population_proper": "138058" }, "geometry": { "type": "Point", "coordinates": [ -96.1078, 19.1056 ] } },
{ "type": "Feature", "properties": { "city": "Colima", "lat": 19.2433, "lng": -103.7247, "country": "Mexico", "iso2": "MX", "admin_name": "Colima", "capital": "admin", "population": "137383", "population_proper": "137383" }, "geometry": { "type": "Point", "coordinates": [ -103.7247, 19.2433 ] } },
{ "type": "Feature", "properties": { "city": "Zinacantepec", "lat": 19.2833, "lng": -99.7333, "country": "Mexico", "iso2": "MX", "admin_name": "México", "capital": "minor", "population": "136167", "population_proper": "136167" }, "geometry": { "type": "Point", "coordinates": [ -99.7333, 19.2833 ] } },
{ "type": "Feature", "properties": { "city": "Santa María Texmelucan", "lat": 19.2833, "lng": -98.4333, "country": "Mexico", "iso2": "MX", "admin_name": "Puebla", "capital": "", "population": "135500", "population_proper": "75518" }, "geometry": { "type": "Point", "coordinates": [ -98.4333, 19.2833 ] } },
{ "type": "Feature", "properties": { "city": "Heroica Guaymas", "lat": 27.9183, "lng": -110.8989, "country": "Mexico", "iso2": "MX", "admin_name": "Sonora", "capital": "minor", "population": "134153", "population_proper": "113082" }, "geometry": { "type": "Point", "coordinates": [ -110.8989, 27.9183 ] } },
{ "type": "Feature", "properties": { "city": "Apatzingan de la Constitucion", "lat": 19.0886, "lng": -102.3508, "country": "Mexico", "iso2": "MX", "admin_name": "Michoacán de Ocampo", "capital": "", "population": "128250", "population_proper": "128250" }, "geometry": { "type": "Point", "coordinates": [ -102.3508, 19.0886 ] } },
{ "type": "Feature", "properties": { "city": "Ixtlahuaca", "lat": 19.5689, "lng": -99.7669, "country": "Mexico", "iso2": "MX", "admin_name": "México", "capital": "minor", "population": "126505", "population_proper": "126505" }, "geometry": { "type": "Point", "coordinates": [ -99.7669, 19.5689 ] } },
{ "type": "Feature", "properties": { "city": "Ciudad de Atlixco", "lat": 18.9, "lng": -98.45, "country": "Mexico", "iso2": "MX", "admin_name": "Puebla", "capital": "minor", "population": "125000", "population_proper": "86690" }, "geometry": { "type": "Point", "coordinates": [ -98.45, 18.9 ] } },
{ "type": "Feature", "properties": { "city": "Ciudad Hidalgo", "lat": 19.6923, "lng": -100.5574, "country": "Mexico", "iso2": "MX", "admin_name": "Michoacán de Ocampo", "capital": "minor", "population": "122619", "population_proper": "122619" }, "geometry": { "type": "Point", "coordinates": [ -100.5574, 19.6923 ] } },
{ "type": "Feature", "properties": { "city": "San Pedro Garza García", "lat": 25.6667, "lng": -100.3, "country": "Mexico", "iso2": "MX", "admin_name": "Nuevo León", "capital": "minor", "population": "122009", "population_proper": "122009" }, "geometry": { "type": "Point", "coordinates": [ -100.3, 25.6667 ] } },
{ "type": "Feature", "properties": { "city": "Chilapa de Álvarez", "lat": 17.5944, "lng": -99.1778, "country": "Mexico", "iso2": "MX", "admin_name": "Guerrero", "capital": "minor", "population": "120790", "population_proper": "120790" }, "geometry": { "type": "Point", "coordinates": [ -99.1778, 17.5944 ] } },
{ "type": "Feature", "properties": { "city": "Miramar", "lat": 22.3375, "lng": -97.8694, "country": "Mexico", "iso2": "MX", "admin_name": "Tamaulipas", "capital": "", "population": "118614", "population_proper": "118614" }, "geometry": { "type": "Point", "coordinates": [ -97.8694, 22.3375 ] } },
{ "type": "Feature", "properties": { "city": "Villa de Álvarez", "lat": 19.25, "lng": -103.7333, "country": "Mexico", "iso2": "MX", "admin_name": "Colima", "capital": "minor", "population": "117600", "population_proper": "117600" }, "geometry": { "type": "Point", "coordinates": [ -103.7333, 19.25 ] } },
{ "type": "Feature", "properties": { "city": "Orizaba", "lat": 18.85, "lng": -97.1, "country": "Mexico", "iso2": "MX", "admin_name": "Veracruz", "capital": "minor", "population": "117273", "population_proper": "117273" }, "geometry": { "type": "Point", "coordinates": [ -97.1, 18.85 ] } },
{ "type": "Feature", "properties": { "city": "Temixco", "lat": 18.85, "lng": -99.2333, "country": "Mexico", "iso2": "MX", "admin_name": "Morelos", "capital": "minor", "population": "116143", "population_proper": "116143" }, "geometry": { "type": "Point", "coordinates": [ -99.2333, 18.85 ] } },
{ "type": "Feature", "properties": { "city": "Huejutla de Reyes", "lat": 21.1333, "lng": -98.4167, "country": "Mexico", "iso2": "MX", "admin_name": "Hidalgo", "capital": "", "population": "115786", "population_proper": "115786" }, "geometry": { "type": "Point", "coordinates": [ -98.4167, 21.1333 ] } },
{ "type": "Feature", "properties": { "city": "Las Delicias", "lat": 28.2, "lng": -105.5, "country": "Mexico", "iso2": "MX", "admin_name": "Chihuahua", "capital": "", "population": "114783", "population_proper": "102969" }, "geometry": { "type": "Point", "coordinates": [ -105.5, 28.2 ] } },
{ "type": "Feature", "properties": { "city": "San Francisco del Rincón", "lat": 21.0228, "lng": -101.86, "country": "Mexico", "iso2": "MX", "admin_name": "Guanajuato", "capital": "minor", "population": "113570", "population_proper": "71139" }, "geometry": { "type": "Point", "coordinates": [ -101.86, 21.0228 ] } },
{ "type": "Feature", "properties": { "city": "Tecomán", "lat": 18.9089, "lng": -103.8747, "country": "Mexico", "iso2": "MX", "admin_name": "Colima", "capital": "minor", "population": "112726", "population_proper": "112726" }, "geometry": { "type": "Point", "coordinates": [ -103.8747, 18.9089 ] } },
{ "type": "Feature", "properties": { "city": "Ciudad Mante", "lat": 22.7333, "lng": -98.95, "country": "Mexico", "iso2": "MX", "admin_name": "Tamaulipas", "capital": "minor", "population": "112061", "population_proper": "84787" }, "geometry": { "type": "Point", "coordinates": [ -98.95, 22.7333 ] } },
{ "type": "Feature", "properties": { "city": "Fresnillo", "lat": 23.175, "lng": -102.8675, "country": "Mexico", "iso2": "MX", "admin_name": "Zacatecas", "capital": "minor", "population": "110892", "population_proper": "110892" }, "geometry": { "type": "Point", "coordinates": [ -102.8675, 23.175 ] } },
{ "type": "Feature", "properties": { "city": "San Antonio Enchisi", "lat": 19.7072, "lng": -99.7867, "country": "Mexico", "iso2": "MX", "admin_name": "México", "capital": "", "population": "110560", "population_proper": "110560" }, "geometry": { "type": "Point", "coordinates": [ -99.7867, 19.7072 ] } },
{ "type": "Feature", "properties": { "city": "Martínez de la Torre", "lat": 20.0667, "lng": -97.05, "country": "Mexico", "iso2": "MX", "admin_name": "Veracruz", "capital": "minor", "population": "110415", "population_proper": "110415" }, "geometry": { "type": "Point", "coordinates": [ -97.05, 20.0667 ] } },
{ "type": "Feature", "properties": { "city": "Iguala de la Independencia", "lat": 18.35, "lng": -99.5333, "country": "Mexico", "iso2": "MX", "admin_name": "Guerrero", "capital": "minor", "population": "110390", "population_proper": "110390" }, "geometry": { "type": "Point", "coordinates": [ -99.5333, 18.35 ] } },
{ "type": "Feature", "properties": { "city": "Cuautitlán", "lat": 19.6833, "lng": -99.1833, "country": "Mexico", "iso2": "MX", "admin_name": "México", "capital": "minor", "population": "110385", "population_proper": "110385" }, "geometry": { "type": "Point", "coordinates": [ -99.1833, 19.6833 ] } },
{ "type": "Feature", "properties": { "city": "Parral", "lat": 26.9333, "lng": -105.6667, "country": "Mexico", "iso2": "MX", "admin_name": "Chihuahua", "capital": "minor", "population": "109510", "population_proper": "104836" }, "geometry": { "type": "Point", "coordinates": [ -105.6667, 26.9333 ] } },
{ "type": "Feature", "properties": { "city": "Escuintla", "lat": 15.3194, "lng": -92.6583, "country": "Mexico", "iso2": "MX", "admin_name": "Chiapas", "capital": "minor", "population": "107638", "population_proper": "8989" }, "geometry": { "type": "Point", "coordinates": [ -92.6583, 15.3194 ] } },
{ "type": "Feature", "properties": { "city": "San Felipe", "lat": 21.4833, "lng": -101.2167, "country": "Mexico", "iso2": "MX", "admin_name": "Guanajuato", "capital": "minor", "population": "106952", "population_proper": "38589" }, "geometry": { "type": "Point", "coordinates": [ -101.2167, 21.4833 ] } },
{ "type": "Feature", "properties": { "city": "Lerma", "lat": 19.2847, "lng": -99.5119, "country": "Mexico", "iso2": "MX", "admin_name": "México", "capital": "minor", "population": "105578", "population_proper": "105578" }, "geometry": { "type": "Point", "coordinates": [ -99.5119, 19.2847 ] } },
{ "type": "Feature", "properties": { "city": "Zihuatanejo", "lat": 17.6444, "lng": -101.5511, "country": "Mexico", "iso2": "MX", "admin_name": "Guerrero", "capital": "minor", "population": "104609", "population_proper": "67408" }, "geometry": { "type": "Point", "coordinates": [ -101.5511, 17.6444 ] } },
{ "type": "Feature", "properties": { "city": "Tula de Allende", "lat": 20.05, "lng": -99.35, "country": "Mexico", "iso2": "MX", "admin_name": "Hidalgo", "capital": "", "population": "103919", "population_proper": "103919" }, "geometry": { "type": "Point", "coordinates": [ -99.35, 20.05 ] } },
{ "type": "Feature", "properties": { "city": "Ciudad Río Bravo", "lat": 25.9861, "lng": -98.0889, "country": "Mexico", "iso2": "MX", "admin_name": "Tamaulipas", "capital": "minor", "population": "101481", "population_proper": "101481" }, "geometry": { "type": "Point", "coordinates": [ -98.0889, 25.9861 ] } },
{ "type": "Feature", "properties": { "city": "San Luis de la Paz", "lat": 21.3, "lng": -100.5167, "country": "Mexico", "iso2": "MX", "admin_name": "Guanajuato", "capital": "minor", "population": "101370", "population_proper": "101370" }, "geometry": { "type": "Point", "coordinates": [ -100.5167, 21.3 ] } },
{ "type": "Feature", "properties": { "city": "Jilotepec", "lat": 19.9519, "lng": -99.5328, "country": "Mexico", "iso2": "MX", "admin_name": "México", "capital": "minor", "population": "100808", "population_proper": "87927" }, "geometry": { "type": "Point", "coordinates": [ -99.5328, 19.9519 ] } },
{ "type": "Feature", "properties": { "city": "Tizayuca", "lat": 19.8333, "lng": -98.9833, "country": "Mexico", "iso2": "MX", "admin_name": "Morelos", "capital": "minor", "population": "100563", "population_proper": "100563" }, "geometry": { "type": "Point", "coordinates": [ -98.9833, 19.8333 ] } },
{ "type": "Feature", "properties": { "city": "San Felipe del Progreso", "lat": 19.7125, "lng": -99.9511, "country": "Mexico", "iso2": "MX", "admin_name": "México", "capital": "minor", "population": "100201", "population_proper": "100201" }, "geometry": { "type": "Point", "coordinates": [ -99.9511, 19.7125 ] } },
{ "type": "Feature", "properties": { "city": "La Piedad", "lat": 20.3333, "lng": -102.0167, "country": "Mexico", "iso2": "MX", "admin_name": "Michoacán de Ocampo", "capital": "minor", "population": "99837", "population_proper": "99837" }, "geometry": { "type": "Point", "coordinates": [ -102.0167, 20.3333 ] } },
{ "type": "Feature", "properties": { "city": "Taxco de Alarcón", "lat": 18.5564, "lng": -99.605, "country": "Mexico", "iso2": "MX", "admin_name": "Guerrero", "capital": "minor", "population": "98854", "population_proper": "52217" }, "geometry": { "type": "Point", "coordinates": [ -99.605, 18.5564 ] } },
{ "type": "Feature", "properties": { "city": "Huauchinango", "lat": 20.1767, "lng": -98.0528, "country": "Mexico", "iso2": "MX", "admin_name": "Puebla", "capital": "minor", "population": "97753", "population_proper": "97753" }, "geometry": { "type": "Point", "coordinates": [ -98.0528, 20.1767 ] } },
{ "type": "Feature", "properties": { "city": "Santa Cruz Xoxocotlán", "lat": 17.0264, "lng": -96.7333, "country": "Mexico", "iso2": "MX", "admin_name": "Oaxaca", "capital": "", "population": "93188", "population_proper": "93188" }, "geometry": { "type": "Point", "coordinates": [ -96.7333, 17.0264 ] } },
{ "type": "Feature", "properties": { "city": "San José del Cabo", "lat": 23.0614, "lng": -109.7081, "country": "Mexico", "iso2": "MX", "admin_name": "Baja California Sur", "capital": "minor", "population": "93069", "population_proper": "69788" }, "geometry": { "type": "Point", "coordinates": [ -109.7081, 23.0614 ] } },
{ "type": "Feature", "properties": { "city": "Teziutlan", "lat": 19.8178, "lng": -97.3667, "country": "Mexico", "iso2": "MX", "admin_name": "Puebla", "capital": "", "population": "92170", "population_proper": "92170" }, "geometry": { "type": "Point", "coordinates": [ -97.3667, 19.8178 ] } },
{ "type": "Feature", "properties": { "city": "Coatepec", "lat": 19.4553, "lng": -96.9586, "country": "Mexico", "iso2": "MX", "admin_name": "Veracruz", "capital": "minor", "population": "92127", "population_proper": "92127" }, "geometry": { "type": "Point", "coordinates": [ -96.9586, 19.4553 ] } },
{ "type": "Feature", "properties": { "city": "Tultepec", "lat": 19.685, "lng": -99.1281, "country": "Mexico", "iso2": "MX", "admin_name": "México", "capital": "minor", "population": "91808", "population_proper": "91808" }, "geometry": { "type": "Point", "coordinates": [ -99.1281, 19.685 ] } },
{ "type": "Feature", "properties": { "city": "Tenancingo", "lat": 18.9608, "lng": -99.5906, "country": "Mexico", "iso2": "MX", "admin_name": "México", "capital": "minor", "population": "90946", "population_proper": "90946" }, "geometry": { "type": "Point", "coordinates": [ -99.5906, 18.9608 ] } },
{ "type": "Feature", "properties": { "city": "Playas de Rosarito", "lat": 32.35, "lng": -117.05, "country": "Mexico", "iso2": "MX", "admin_name": "Baja California", "capital": "minor", "population": "90668", "population_proper": "90668" }, "geometry": { "type": "Point", "coordinates": [ -117.05, 32.35 ] } },
{ "type": "Feature", "properties": { "city": "Paraíso", "lat": 18.3961, "lng": -93.2128, "country": "Mexico", "iso2": "MX", "admin_name": "Tabasco", "capital": "minor", "population": "86632", "population_proper": "86632" }, "geometry": { "type": "Point", "coordinates": [ -93.2128, 18.3961 ] } },
{ "type": "Feature", "properties": { "city": "Cadereyta Jiménez", "lat": 25.6, "lng": -100.0, "country": "Mexico", "iso2": "MX", "admin_name": "Nuevo León", "capital": "minor", "population": "86445", "population_proper": "86445" }, "geometry": { "type": "Point", "coordinates": [ -100.0, 25.6 ] } },
{ "type": "Feature", "properties": { "city": "Santa Rosa Jauregui", "lat": 20.7418, "lng": -100.4473, "country": "Mexico", "iso2": "MX", "admin_name": "Querétaro", "capital": "", "population": "86376", "population_proper": "86376" }, "geometry": { "type": "Point", "coordinates": [ -100.4473, 20.7418 ] } },
{ "type": "Feature", "properties": { "city": "Guasavito", "lat": 25.5655, "lng": -108.4718, "country": "Mexico", "iso2": "MX", "admin_name": "Sinaloa", "capital": "", "population": "86361", "population_proper": "86361" }, "geometry": { "type": "Point", "coordinates": [ -108.4718, 25.5655 ] } },
{ "type": "Feature", "properties": { "city": "Acayucan", "lat": 17.9422, "lng": -94.9103, "country": "Mexico", "iso2": "MX", "admin_name": "Veracruz", "capital": "minor", "population": "83817", "population_proper": "83817" }, "geometry": { "type": "Point", "coordinates": [ -94.9103, 17.9422 ] } },
{ "type": "Feature", "properties": { "city": "Jalpa de Méndez", "lat": 18.1764, "lng": -93.0631, "country": "Mexico", "iso2": "MX", "admin_name": "Tabasco", "capital": "minor", "population": "83356", "population_proper": "83356" }, "geometry": { "type": "Point", "coordinates": [ -93.0631, 18.1764 ] } },
{ "type": "Feature", "properties": { "city": "Nacajuca", "lat": 18.1692, "lng": -93.0197, "country": "Mexico", "iso2": "MX", "admin_name": "Tabasco", "capital": "minor", "population": "83356", "population_proper": "83356" }, "geometry": { "type": "Point", "coordinates": [ -93.0197, 18.1692 ] } },
{ "type": "Feature", "properties": { "city": "Apizaco", "lat": 19.4167, "lng": -98.1333, "country": "Mexico", "iso2": "MX", "admin_name": "Tlaxcala", "capital": "minor", "population": "81565", "population_proper": "81565" }, "geometry": { "type": "Point", "coordinates": [ -98.1333, 19.4167 ] } },
{ "type": "Feature", "properties": { "city": "Cunduacán", "lat": 18.0667, "lng": -93.1667, "country": "Mexico", "iso2": "MX", "admin_name": "Tabasco", "capital": "minor", "population": "81392", "population_proper": "81392" }, "geometry": { "type": "Point", "coordinates": [ -93.1667, 18.0667 ] } },
{ "type": "Feature", "properties": { "city": "Cabo San Lucas", "lat": 22.8897, "lng": -109.9156, "country": "Mexico", "iso2": "MX", "admin_name": "Baja California Sur", "capital": "", "population": "81111", "population_proper": "68463" }, "geometry": { "type": "Point", "coordinates": [ -109.9156, 22.8897 ] } },
{ "type": "Feature", "properties": { "city": "Salina Cruz", "lat": 16.1671, "lng": -95.2, "country": "Mexico", "iso2": "MX", "admin_name": "Oaxaca", "capital": "", "population": "81063", "population_proper": "73648" }, "geometry": { "type": "Point", "coordinates": [ -95.2, 16.1671 ] } },
{ "type": "Feature", "properties": { "city": "Tepeji del Río de Ocampo", "lat": 19.9039, "lng": -99.3414, "country": "Mexico", "iso2": "MX", "admin_name": "Hidalgo", "capital": "", "population": "80612", "population_proper": "34151" }, "geometry": { "type": "Point", "coordinates": [ -99.3414, 19.9039 ] } },
{ "type": "Feature", "properties": { "city": "Tala", "lat": 20.6525, "lng": -103.7028, "country": "Mexico", "iso2": "MX", "admin_name": "Jalisco", "capital": "minor", "population": "80365", "population_proper": "80365" }, "geometry": { "type": "Point", "coordinates": [ -103.7028, 20.6525 ] } },
{ "type": "Feature", "properties": { "city": "Cárdenas", "lat": 17.983, "lng": -93.367, "country": "Mexico", "iso2": "MX", "admin_name": "Tabasco", "capital": "minor", "population": "79875", "population_proper": "79875" }, "geometry": { "type": "Point", "coordinates": [ -93.367, 17.983 ] } },
{ "type": "Feature", "properties": { "city": "Pátzcuaro", "lat": 19.5164, "lng": -101.6097, "country": "Mexico", "iso2": "MX", "admin_name": "Michoacán de Ocampo", "capital": "minor", "population": "79868", "population_proper": "79868" }, "geometry": { "type": "Point", "coordinates": [ -101.6097, 19.5164 ] } },
{ "type": "Feature", "properties": { "city": "Ciudad Lerdo", "lat": 25.55, "lng": -103.5167, "country": "Mexico", "iso2": "MX", "admin_name": "Durango", "capital": "minor", "population": "79669", "population_proper": "79669" }, "geometry": { "type": "Point", "coordinates": [ -103.5167, 25.55 ] } },
{ "type": "Feature", "properties": { "city": "Ciudad Lázaro Cárdenas", "lat": 17.9561, "lng": -102.1922, "country": "Mexico", "iso2": "MX", "admin_name": "Michoacán de Ocampo", "capital": "", "population": "79200", "population_proper": "79200" }, "geometry": { "type": "Point", "coordinates": [ -102.1922, 17.9561 ] } },
{ "type": "Feature", "properties": { "city": "Agua Prieta", "lat": 31.3258, "lng": -109.5489, "country": "Mexico", "iso2": "MX", "admin_name": "Sonora", "capital": "minor", "population": "79138", "population_proper": "77254" }, "geometry": { "type": "Point", "coordinates": [ -109.5489, 31.3258 ] } },
{ "type": "Feature", "properties": { "city": "Sahuayo de Morelos", "lat": 20.0575, "lng": -102.7239, "country": "Mexico", "iso2": "MX", "admin_name": "Michoacán de Ocampo", "capital": "", "population": "78477", "population_proper": "78477" }, "geometry": { "type": "Point", "coordinates": [ -102.7239, 20.0575 ] } },
{ "type": "Feature", "properties": { "city": "Villa Victoria", "lat": 19.4333, "lng": -100.0, "country": "Mexico", "iso2": "MX", "admin_name": "México", "capital": "minor", "population": "77819", "population_proper": "77819" }, "geometry": { "type": "Point", "coordinates": [ -100.0, 19.4333 ] } },
{ "type": "Feature", "properties": { "city": "Temoaya", "lat": 19.4686, "lng": -99.5933, "country": "Mexico", "iso2": "MX", "admin_name": "Morelos", "capital": "minor", "population": "77714", "population_proper": "77714" }, "geometry": { "type": "Point", "coordinates": [ -99.5933, 19.4686 ] } },
{ "type": "Feature", "properties": { "city": "Ciudad de Huajuapam de León", "lat": 17.8039, "lng": -97.7758, "country": "Mexico", "iso2": "MX", "admin_name": "Oaxaca", "capital": "minor", "population": "77547", "population_proper": "77547" }, "geometry": { "type": "Point", "coordinates": [ -97.7758, 17.8039 ] } },
{ "type": "Feature", "properties": { "city": "Cozumel", "lat": 20.5104, "lng": -86.9493, "country": "Mexico", "iso2": "MX", "admin_name": "Quintana Roo", "capital": "minor", "population": "77236", "population_proper": "77236" }, "geometry": { "type": "Point", "coordinates": [ -86.9493, 20.5104 ] } },
{ "type": "Feature", "properties": { "city": "Tacámbaro de Codallos", "lat": 19.2356, "lng": -101.4569, "country": "Mexico", "iso2": "MX", "admin_name": "Michoacán de Ocampo", "capital": "minor", "population": "76661", "population_proper": "76661" }, "geometry": { "type": "Point", "coordinates": [ -101.4569, 19.2356 ] } },
{ "type": "Feature", "properties": { "city": "Zacatlán", "lat": 19.9319, "lng": -97.96, "country": "Mexico", "iso2": "MX", "admin_name": "Puebla", "capital": "minor", "population": "76296", "population_proper": "33736" }, "geometry": { "type": "Point", "coordinates": [ -97.96, 19.9319 ] } },
{ "type": "Feature", "properties": { "city": "Valle Alto", "lat": 25.5667, "lng": -100.25, "country": "Mexico", "iso2": "MX", "admin_name": "Nuevo León", "capital": "", "population": "75000", "population_proper": "75000" }, "geometry": { "type": "Point", "coordinates": [ -100.25, 25.5667 ] } },
{ "type": "Feature", "properties": { "city": "Juchitán de Zaragoza", "lat": 16.4333, "lng": -95.0194, "country": "Mexico", "iso2": "MX", "admin_name": "Oaxaca", "capital": "minor", "population": "74825", "population_proper": "74825" }, "geometry": { "type": "Point", "coordinates": [ -95.0194, 16.4333 ] } },
{ "type": "Feature", "properties": { "city": "Fuentes del Valle", "lat": 19.6325, "lng": -99.1386, "country": "Mexico", "iso2": "MX", "admin_name": "México", "capital": "", "population": "74087", "population_proper": "74087" }, "geometry": { "type": "Point", "coordinates": [ -99.1386, 19.6325 ] } },
{ "type": "Feature", "properties": { "city": "Ixmiquilpan", "lat": 20.4861, "lng": -99.2589, "country": "Mexico", "iso2": "MX", "admin_name": "Hidalgo", "capital": "minor", "population": "73903", "population_proper": "73903" }, "geometry": { "type": "Point", "coordinates": [ -99.2589, 20.4861 ] } },
{ "type": "Feature", "properties": { "city": "Tamazunchale", "lat": 21.2667, "lng": -98.7833, "country": "Mexico", "iso2": "MX", "admin_name": "San Luis Potosí", "capital": "minor", "population": "72685", "population_proper": "21532" }, "geometry": { "type": "Point", "coordinates": [ -98.7833, 21.2667 ] } },
{ "type": "Feature", "properties": { "city": "Guamúchil", "lat": 25.4639, "lng": -108.0794, "country": "Mexico", "iso2": "MX", "admin_name": "Sinaloa", "capital": "minor", "population": "72500", "population_proper": "63743" }, "geometry": { "type": "Point", "coordinates": [ -108.0794, 25.4639 ] } },
{ "type": "Feature", "properties": { "city": "Guasave", "lat": 25.5744, "lng": -108.4706, "country": "Mexico", "iso2": "MX", "admin_name": "Sinaloa", "capital": "minor", "population": "71196", "population_proper": "71196" }, "geometry": { "type": "Point", "coordinates": [ -108.4706, 25.5744 ] } },
{ "type": "Feature", "properties": { "city": "Tejupilco", "lat": 18.9058, "lng": -100.1528, "country": "Mexico", "iso2": "MX", "admin_name": "México", "capital": "minor", "population": "71077", "population_proper": "71077" }, "geometry": { "type": "Point", "coordinates": [ -100.1528, 18.9058 ] } },
{ "type": "Feature", "properties": { "city": "Frontera", "lat": 26.926, "lng": -101.449, "country": "Mexico", "iso2": "MX", "admin_name": "Coahuila de Zaragoza", "capital": "minor", "population": "70160", "population_proper": "70160" }, "geometry": { "type": "Point", "coordinates": [ -101.449, 26.926 ] } },
{ "type": "Feature", "properties": { "city": "Jacona de Plancarte", "lat": 19.95, "lng": -102.3167, "country": "Mexico", "iso2": "MX", "admin_name": "México", "capital": "", "population": "69744", "population_proper": "69744" }, "geometry": { "type": "Point", "coordinates": [ -102.3167, 19.95 ] } },
{ "type": "Feature", "properties": { "city": "San Juan de los Lagos", "lat": 21.2458, "lng": -102.3308, "country": "Mexico", "iso2": "MX", "admin_name": "Jalisco", "capital": "minor", "population": "69725", "population_proper": "69725" }, "geometry": { "type": "Point", "coordinates": [ -102.3308, 21.2458 ] } },
{ "type": "Feature", "properties": { "city": "Rioverde", "lat": 21.93, "lng": -99.98, "country": "Mexico", "iso2": "MX", "admin_name": "San Luis Potosí", "capital": "minor", "population": "69613", "population_proper": "48854" }, "geometry": { "type": "Point", "coordinates": [ -99.98, 21.93 ] } },
{ "type": "Feature", "properties": { "city": "Purísima de Bustos", "lat": 21.0333, "lng": -101.8667, "country": "Mexico", "iso2": "MX", "admin_name": "Guanajuato", "capital": "minor", "population": "68795", "population_proper": "68795" }, "geometry": { "type": "Point", "coordinates": [ -101.8667, 21.0333 ] } },
{ "type": "Feature", "properties": { "city": "Valle Hermoso", "lat": 25.6736, "lng": -97.8144, "country": "Mexico", "iso2": "MX", "admin_name": "Tamaulipas", "capital": "minor", "population": "68573", "population_proper": "68573" }, "geometry": { "type": "Point", "coordinates": [ -97.8144, 25.6736 ] } },
{ "type": "Feature", "properties": { "city": "Zapotlanejo", "lat": 20.6228, "lng": -103.0689, "country": "Mexico", "iso2": "MX", "admin_name": "Jalisco", "capital": "minor", "population": "68519", "population_proper": "68519" }, "geometry": { "type": "Point", "coordinates": [ -103.0689, 20.6228 ] } },
{ "type": "Feature", "properties": { "city": "Tepotzotlán", "lat": 19.7161, "lng": -99.2236, "country": "Mexico", "iso2": "MX", "admin_name": "México", "capital": "minor", "population": "67724", "population_proper": "67724" }, "geometry": { "type": "Point", "coordinates": [ -99.2236, 19.7161 ] } },
{ "type": "Feature", "properties": { "city": "Matehuala", "lat": 23.6528, "lng": -100.6444, "country": "Mexico", "iso2": "MX", "admin_name": "San Luis Potosí", "capital": "minor", "population": "67717", "population_proper": "59532" }, "geometry": { "type": "Point", "coordinates": [ -100.6444, 23.6528 ] } },
{ "type": "Feature", "properties": { "city": "Comonfort", "lat": 20.7167, "lng": -100.7667, "country": "Mexico", "iso2": "MX", "admin_name": "Guanajuato", "capital": "minor", "population": "67642", "population_proper": "67642" }, "geometry": { "type": "Point", "coordinates": [ -100.7667, 20.7167 ] } },
{ "type": "Feature", "properties": { "city": "Santa Catarina Otzolotepec", "lat": 18.5667, "lng": -97.25, "country": "Mexico", "iso2": "MX", "admin_name": "Puebla", "capital": "", "population": "67611", "population_proper": "67611" }, "geometry": { "type": "Point", "coordinates": [ -97.25, 18.5667 ] } },
{ "type": "Feature", "properties": { "city": "Juventino Rosas", "lat": 20.65, "lng": -101.0, "country": "Mexico", "iso2": "MX", "admin_name": "Guanajuato", "capital": "minor", "population": "65479", "population_proper": "65479" }, "geometry": { "type": "Point", "coordinates": [ -101.0, 20.65 ] } },
{ "type": "Feature", "properties": { "city": "Jiquílpan de Juárez", "lat": 19.9942, "lng": -102.7172, "country": "Mexico", "iso2": "MX", "admin_name": "México", "capital": "minor", "population": "65000", "population_proper": "65000" }, "geometry": { "type": "Point", "coordinates": [ -102.7172, 19.9942 ] } },
{ "type": "Feature", "properties": { "city": "Tecate", "lat": 32.5667, "lng": -116.6331, "country": "Mexico", "iso2": "MX", "admin_name": "Baja California", "capital": "minor", "population": "64764", "population_proper": "64764" }, "geometry": { "type": "Point", "coordinates": [ -116.6331, 32.5667 ] } },
{ "type": "Feature", "properties": { "city": "Santo Domingo Tehuantepec", "lat": 16.3184, "lng": -95.2478, "country": "Mexico", "iso2": "MX", "admin_name": "Oaxaca", "capital": "minor", "population": "64639", "population_proper": "64639" }, "geometry": { "type": "Point", "coordinates": [ -95.2478, 16.3184 ] } },
{ "type": "Feature", "properties": { "city": "Apaseo el Alto", "lat": 20.45, "lng": -100.6167, "country": "Mexico", "iso2": "MX", "admin_name": "Guanajuato", "capital": "minor", "population": "64443", "population_proper": "64443" }, "geometry": { "type": "Point", "coordinates": [ -100.6167, 20.45 ] } },
{ "type": "Feature", "properties": { "city": "Santiago Tianguistenco", "lat": 19.1797, "lng": -99.4706, "country": "Mexico", "iso2": "MX", "admin_name": "México", "capital": "minor", "population": "64365", "population_proper": "64365" }, "geometry": { "type": "Point", "coordinates": [ -99.4706, 19.1797 ] } },
{ "type": "Feature", "properties": { "city": "Misantla", "lat": 19.9333, "lng": -96.85, "country": "Mexico", "iso2": "MX", "admin_name": "Veracruz", "capital": "minor", "population": "64249", "population_proper": "64249" }, "geometry": { "type": "Point", "coordinates": [ -96.85, 19.9333 ] } },
{ "type": "Feature", "properties": { "city": "Colonia del Sol", "lat": 22.9125, "lng": -109.9208, "country": "Mexico", "iso2": "MX", "admin_name": "Baja California Sur", "capital": "", "population": "64055", "population_proper": "48032" }, "geometry": { "type": "Point", "coordinates": [ -109.9208, 22.9125 ] } },
{ "type": "Feature", "properties": { "city": "Sabinas", "lat": 27.86, "lng": -101.12, "country": "Mexico", "iso2": "MX", "admin_name": "Coahuila de Zaragoza", "capital": "minor", "population": "63522", "population_proper": "63522" }, "geometry": { "type": "Point", "coordinates": [ -101.12, 27.86 ] } },
{ "type": "Feature", "properties": { "city": "San Juan de Sabinas", "lat": 27.9167, "lng": -101.3, "country": "Mexico", "iso2": "MX", "admin_name": "Coahuila de Zaragoza", "capital": "minor", "population": "63522", "population_proper": "63522" }, "geometry": { "type": "Point", "coordinates": [ -101.3, 27.9167 ] } },
{ "type": "Feature", "properties": { "city": "Teoloyucan", "lat": 19.7442, "lng": -99.1811, "country": "Mexico", "iso2": "MX", "admin_name": "México", "capital": "minor", "population": "63115", "population_proper": "41333" }, "geometry": { "type": "Point", "coordinates": [ -99.1811, 19.7442 ] } },
{ "type": "Feature", "properties": { "city": "Linares", "lat": 24.8597, "lng": -99.5679, "country": "Mexico", "iso2": "MX", "admin_name": "Nuevo León", "capital": "minor", "population": "63104", "population_proper": "63104" }, "geometry": { "type": "Point", "coordinates": [ -99.5679, 24.8597 ] } },
{ "type": "Feature", "properties": { "city": "Puerto Peñasco", "lat": 31.3167, "lng": -113.5369, "country": "Mexico", "iso2": "MX", "admin_name": "Sonora", "capital": "minor", "population": "62177", "population_proper": "56756" }, "geometry": { "type": "Point", "coordinates": [ -113.5369, 31.3167 ] } },
{ "type": "Feature", "properties": { "city": "Ocoyoacac", "lat": 19.2739, "lng": -99.4606, "country": "Mexico", "iso2": "MX", "admin_name": "Morelos", "capital": "minor", "population": "61805", "population_proper": "61805" }, "geometry": { "type": "Point", "coordinates": [ -99.4606, 19.2739 ] } },
{ "type": "Feature", "properties": { "city": "Valle de Bravo", "lat": 19.1925, "lng": -100.1306, "country": "Mexico", "iso2": "MX", "admin_name": "México", "capital": "minor", "population": "61559", "population_proper": "61559" }, "geometry": { "type": "Point", "coordinates": [ -100.1306, 19.1925 ] } },
{ "type": "Feature", "properties": { "city": "Montemorelos", "lat": 25.1872, "lng": -99.8267, "country": "Mexico", "iso2": "MX", "admin_name": "Nuevo León", "capital": "minor", "population": "60829", "population_proper": "45108" }, "geometry": { "type": "Point", "coordinates": [ -99.8267, 25.1872 ] } },
{ "type": "Feature", "properties": { "city": "Huatusco", "lat": 19.1489, "lng": -96.9661, "country": "Mexico", "iso2": "MX", "admin_name": "Veracruz", "capital": "minor", "population": "60674", "population_proper": "60674" }, "geometry": { "type": "Point", "coordinates": [ -96.9661, 19.1489 ] } },
{ "type": "Feature", "properties": { "city": "Autlán de Navarro", "lat": 19.7667, "lng": -104.3667, "country": "Mexico", "iso2": "MX", "admin_name": "Jalisco", "capital": "minor", "population": "60572", "population_proper": "60572" }, "geometry": { "type": "Point", "coordinates": [ -104.3667, 19.7667 ] } },
{ "type": "Feature", "properties": { "city": "Amozoc", "lat": 19.0333, "lng": -98.05, "country": "Mexico", "iso2": "MX", "admin_name": "Puebla", "capital": "minor", "population": "60517", "population_proper": "60517" }, "geometry": { "type": "Point", "coordinates": [ -98.05, 19.0333 ] } },
{ "type": "Feature", "properties": { "city": "Heroica Caborca", "lat": 30.7167, "lng": -112.15, "country": "Mexico", "iso2": "MX", "admin_name": "Sonora", "capital": "minor", "population": "59922", "population_proper": "59922" }, "geometry": { "type": "Point", "coordinates": [ -112.15, 30.7167 ] } },
{ "type": "Feature", "properties": { "city": "Huehuetoca", "lat": 19.8342, "lng": -99.2033, "country": "Mexico", "iso2": "MX", "admin_name": "México", "capital": "minor", "population": "59721", "population_proper": "59721" }, "geometry": { "type": "Point", "coordinates": [ -99.2033, 19.8342 ] } },
{ "type": "Feature", "properties": { "city": "Altamira", "lat": 22.3375, "lng": -97.8694, "country": "Mexico", "iso2": "MX", "admin_name": "Tamaulipas", "capital": "minor", "population": "59536", "population_proper": "59536" }, "geometry": { "type": "Point", "coordinates": [ -97.8694, 22.3375 ] } },
{ "type": "Feature", "properties": { "city": "Uriangato", "lat": 20.1333, "lng": -101.1667, "country": "Mexico", "iso2": "MX", "admin_name": "Guanajuato", "capital": "minor", "population": "59305", "population_proper": "59305" }, "geometry": { "type": "Point", "coordinates": [ -101.1667, 20.1333 ] } },
{ "type": "Feature", "properties": { "city": "Tlaltenango de Sánchez Román", "lat": 21.7815, "lng": -103.3059, "country": "Mexico", "iso2": "MX", "admin_name": "Zacatecas", "capital": "minor", "population": "58560", "population_proper": "58560" }, "geometry": { "type": "Point", "coordinates": [ -103.3059, 21.7815 ] } },
{ "type": "Feature", "properties": { "city": "Sombrerete", "lat": 23.6333, "lng": -103.6397, "country": "Mexico", "iso2": "MX", "admin_name": "Zacatecas", "capital": "minor", "population": "58201", "population_proper": "21702" }, "geometry": { "type": "Point", "coordinates": [ -103.6397, 23.6333 ] } },
{ "type": "Feature", "properties": { "city": "Temascalcingo", "lat": 19.9147, "lng": -100.0036, "country": "Mexico", "iso2": "MX", "admin_name": "México", "capital": "minor", "population": "58169", "population_proper": "58169" }, "geometry": { "type": "Point", "coordinates": [ -100.0036, 19.9147 ] } },
{ "type": "Feature", "properties": { "city": "Acámbaro", "lat": 20.0361, "lng": -100.7314, "country": "Mexico", "iso2": "MX", "admin_name": "Guanajuato", "capital": "minor", "population": "57972", "population_proper": "57972" }, "geometry": { "type": "Point", "coordinates": [ -100.7314, 20.0361 ] } },
{ "type": "Feature", "properties": { "city": "Cortazar", "lat": 20.483, "lng": -100.933, "country": "Mexico", "iso2": "MX", "admin_name": "Guanajuato", "capital": "minor", "population": "57748", "population_proper": "57748" }, "geometry": { "type": "Point", "coordinates": [ -100.933, 20.483 ] } },
{ "type": "Feature", "properties": { "city": "Ciudad Cuauhtémoc", "lat": 22.1833, "lng": -97.8333, "country": "Mexico", "iso2": "MX", "admin_name": "Veracruz", "capital": "minor", "population": "57646", "population_proper": "57646" }, "geometry": { "type": "Point", "coordinates": [ -97.8333, 22.1833 ] } },
{ "type": "Feature", "properties": { "city": "Jerez de García Salinas", "lat": 22.6481, "lng": -102.9903, "country": "Mexico", "iso2": "MX", "admin_name": "Zacatecas", "capital": "minor", "population": "57610", "population_proper": "57610" }, "geometry": { "type": "Point", "coordinates": [ -102.9903, 22.6481 ] } },
{ "type": "Feature", "properties": { "city": "Santiago Tuxtla", "lat": 18.4654, "lng": -95.3, "country": "Mexico", "iso2": "MX", "admin_name": "Veracruz", "capital": "minor", "population": "57466", "population_proper": "57466" }, "geometry": { "type": "Point", "coordinates": [ -95.3, 18.4654 ] } },
{ "type": "Feature", "properties": { "city": "Cosamaloapan", "lat": 18.3667, "lng": -95.8, "country": "Mexico", "iso2": "MX", "admin_name": "Veracruz", "capital": "minor", "population": "57147", "population_proper": "57147" }, "geometry": { "type": "Point", "coordinates": [ -95.8, 18.3667 ] } },
{ "type": "Feature", "properties": { "city": "Tezonapa", "lat": 18.6058, "lng": -96.6875, "country": "Mexico", "iso2": "MX", "admin_name": "Veracruz", "capital": "minor", "population": "56956", "population_proper": "56956" }, "geometry": { "type": "Point", "coordinates": [ -96.6875, 18.6058 ] } },
{ "type": "Feature", "properties": { "city": "Acambay", "lat": 19.9539, "lng": -99.8431, "country": "Mexico", "iso2": "MX", "admin_name": "México", "capital": "minor", "population": "56847", "population_proper": "56847" }, "geometry": { "type": "Point", "coordinates": [ -99.8431, 19.9539 ] } },
{ "type": "Feature", "properties": { "city": "Amealco", "lat": 20.1881, "lng": -100.1439, "country": "Mexico", "iso2": "MX", "admin_name": "Querétaro", "capital": "minor", "population": "56457", "population_proper": "56457" }, "geometry": { "type": "Point", "coordinates": [ -100.1439, 20.1881 ] } },
{ "type": "Feature", "properties": { "city": "Actopan", "lat": 20.267, "lng": -98.933, "country": "Mexico", "iso2": "MX", "admin_name": "Hidalgo", "capital": "", "population": "56429", "population_proper": "32276" }, "geometry": { "type": "Point", "coordinates": [ -98.933, 20.267 ] } },
{ "type": "Feature", "properties": { "city": "Etchojoa", "lat": 26.8667, "lng": -109.65, "country": "Mexico", "iso2": "MX", "admin_name": "Sonora", "capital": "minor", "population": "56129", "population_proper": "56129" }, "geometry": { "type": "Point", "coordinates": [ -109.65, 26.8667 ] } },
{ "type": "Feature", "properties": { "city": "Nuevo Casas Grandes", "lat": 30.4167, "lng": -107.9167, "country": "Mexico", "iso2": "MX", "admin_name": "Chihuahua", "capital": "minor", "population": "55553", "population_proper": "55553" }, "geometry": { "type": "Point", "coordinates": [ -107.9167, 30.4167 ] } },
{ "type": "Feature", "properties": { "city": "Jocotitlán", "lat": 19.7072, "lng": -99.7867, "country": "Mexico", "iso2": "MX", "admin_name": "México", "capital": "minor", "population": "55403", "population_proper": "55403" }, "geometry": { "type": "Point", "coordinates": [ -99.7867, 19.7072 ] } },
{ "type": "Feature", "properties": { "city": "Tequisquiapan", "lat": 20.5206, "lng": -99.8958, "country": "Mexico", "iso2": "MX", "admin_name": "Querétaro", "capital": "minor", "population": "54929", "population_proper": "54929" }, "geometry": { "type": "Point", "coordinates": [ -99.8958, 20.5206 ] } },
{ "type": "Feature", "properties": { "city": "San José Iturbide", "lat": 21.0, "lng": -100.3833, "country": "Mexico", "iso2": "MX", "admin_name": "Guanajuato", "capital": "minor", "population": "54661", "population_proper": "54661" }, "geometry": { "type": "Point", "coordinates": [ -100.3833, 21.0 ] } },
{ "type": "Feature", "properties": { "city": "Ixhuatlán de Madero", "lat": 20.6833, "lng": -98.0167, "country": "Mexico", "iso2": "MX", "admin_name": "Veracruz", "capital": "minor", "population": "54132", "population_proper": "54132" }, "geometry": { "type": "Point", "coordinates": [ -98.0167, 20.6833 ] } },
{ "type": "Feature", "properties": { "city": "Progreso", "lat": 21.28, "lng": -89.67, "country": "Mexico", "iso2": "MX", "admin_name": "Yucatán", "capital": "minor", "population": "53958", "population_proper": "37369" }, "geometry": { "type": "Point", "coordinates": [ -89.67, 21.28 ] } },
{ "type": "Feature", "properties": { "city": "San Pedro", "lat": 25.7589, "lng": -102.9844, "country": "Mexico", "iso2": "MX", "admin_name": "Coahuila de Zaragoza", "capital": "minor", "population": "53688", "population_proper": "53688" }, "geometry": { "type": "Point", "coordinates": [ -102.9844, 25.7589 ] } },
{ "type": "Feature", "properties": { "city": "Encarnación de Díaz", "lat": 21.5167, "lng": -102.2333, "country": "Mexico", "iso2": "MX", "admin_name": "Jalisco", "capital": "minor", "population": "53555", "population_proper": "53555" }, "geometry": { "type": "Point", "coordinates": [ -102.2333, 21.5167 ] } },
{ "type": "Feature", "properties": { "city": "Pijijiapan", "lat": 15.6867, "lng": -93.2092, "country": "Mexico", "iso2": "MX", "admin_name": "Chiapas", "capital": "minor", "population": "53525", "population_proper": "53525" }, "geometry": { "type": "Point", "coordinates": [ -93.2092, 15.6867 ] } },
{ "type": "Feature", "properties": { "city": "San José Villa de Allende", "lat": 19.3747, "lng": -100.1475, "country": "Mexico", "iso2": "MX", "admin_name": "México", "capital": "minor", "population": "52641", "population_proper": "52641" }, "geometry": { "type": "Point", "coordinates": [ -100.1475, 19.3747 ] } },
{ "type": "Feature", "properties": { "city": "Acatzingo", "lat": 18.9817, "lng": -97.7822, "country": "Mexico", "iso2": "MX", "admin_name": "Puebla", "capital": "minor", "population": "52078", "population_proper": "52078" }, "geometry": { "type": "Point", "coordinates": [ -97.7822, 18.9817 ] } },
{ "type": "Feature", "properties": { "city": "Huamantla", "lat": 19.3133, "lng": -97.9228, "country": "Mexico", "iso2": "MX", "admin_name": "Tlaxcala", "capital": "minor", "population": "51996", "population_proper": "51996" }, "geometry": { "type": "Point", "coordinates": [ -97.9228, 19.3133 ] } },
{ "type": "Feature", "properties": { "city": "Romita", "lat": 20.8708, "lng": -101.5169, "country": "Mexico", "iso2": "MX", "admin_name": "Guanajuato", "capital": "minor", "population": "51825", "population_proper": "51825" }, "geometry": { "type": "Point", "coordinates": [ -101.5169, 20.8708 ] } },
{ "type": "Feature", "properties": { "city": "Berriozábal", "lat": 16.7993, "lng": -93.2725, "country": "Mexico", "iso2": "MX", "admin_name": "Chiapas", "capital": "minor", "population": "51722", "population_proper": "51722" }, "geometry": { "type": "Point", "coordinates": [ -93.2725, 16.7993 ] } },
{ "type": "Feature", "properties": { "city": "Zumpango", "lat": 19.7969, "lng": -99.0992, "country": "Mexico", "iso2": "MX", "admin_name": "México", "capital": "minor", "population": "50742", "population_proper": "50742" }, "geometry": { "type": "Point", "coordinates": [ -99.0992, 19.7969 ] } },
{ "type": "Feature", "properties": { "city": "Francisco I. Madero", "lat": 25.7753, "lng": -103.2731, "country": "Mexico", "iso2": "MX", "admin_name": "Coahuila de Zaragoza", "capital": "minor", "population": "50084", "population_proper": "50084" }, "geometry": { "type": "Point", "coordinates": [ -103.2731, 25.7753 ] } }
]
}
